{\rtf1\ansi\ansicpg936\deff0\deflang1033\deflangfe2052{\fonttbl{\f0\fnil\fcharset134 \'cb\'ce\'cc\'e5;}}
\viewkind4\uc1\pard\lang2052\f0\fs18\'a1\'be2020-10-20 08:44:33:201\'a1\'bf$GPGGA,004434.10,3957.36837357,N,11618.81504493,E,4,32,0.76,45.181,M,0.000,M,9.8,0000*70
\par 
\par \'a1\'be2020-10-20 08:44:33:201\'a1\'bf$GPRMC,004434.10,A,3957.36837357,N,11618.81504493,E,0.004,0.00,201020,,,N*6B
\par 
\par \'a1\'be2020-10-20 08:44:33:217\'a1\'bf$GPCHC,2128,175492.10,179.42,0.46,-1.14,-0.03,-0.01,0.03,0.0191,0.0075,1.0024,39.95613956,116.31358408,45.18,0.002,0.000,0.000,0.002,32,29,42,10,2*4F
\par 
\par \'a1\'be2020-10-20 08:44:33:279\'a1\'bf$GPGGA,004434.20,3957.36837359,N,11618.81504486,E,4,32,0.76,45.181,M,0.000,M,10.0,0000*49
\par 
\par \'a1\'be2020-10-20 08:44:33:295\'a1\'bf$GPRMC,004434.20,A,3957.36837359,N,11618.81504486,E,0.006,0.00,201020,,,N*60
\par 
\par \'a1\'be2020-10-20 08:44:33:311\'a1\'bf$GPCHC,2128,175492.20,179.42,0.46,-1.14,0.01,-0.04,0.00,0.0213,0.0074,1.0005,39.95613956,116.31358408,45.18,0.002,0.002,-0.002,0.003,32,29,42,10,2*42
\par 
\par \'a1\'be2020-10-20 08:44:33:373\'a1\'bf$GPGGA,004434.30,3957.36837370,N,11618.81504478,E,4,32,0.76,45.181,M,0.000,M,10.2,0000*40
\par 
\par \'a1\'be2020-10-20 08:44:33:389\'a1\'bf$GPRMC,004434.30,A,3957.36837370,N,11618.81504478,E,0.005,0.00,201020,,,N*68
\par 
\par \'a1\'be2020-10-20 08:44:33:389\'a1\'bf$GPCHC,2128,175492.30,179.42,0.46,-1.14,0.01,-0.02,0.03,0.0177,0.0085,1.0028,39.95613956,116.31358408,45.18,0.001,0.002,-0.002,0.003,32,30,42,10,2*4D
\par 
\par \'a1\'be2020-10-20 08:44:33:498\'a1\'bf$GPGGA,004434.40,3957.36837380,N,11618.81504492,E,4,32,0.76,45.181,M,0.000,M,10.2,0000*4C
\par 
\par \'a1\'be2020-10-20 08:44:33:514\'a1\'bf$GPRMC,004434.40,A,3957.36837380,N,11618.81504492,E,0.009,0.00,201020,,,N*68
\par 
\par \'a1\'be2020-10-20 08:44:33:514\'a1\'bf$GPCHC,2128,175492.40,179.42,0.46,-1.14,0.07,-0.02,0.05,0.0183,0.0091,0.9998,39.95613956,116.31358408,45.18,0.003,0.003,-0.002,0.005,32,30,42,10,2*4B
\par 
\par \'a1\'be2020-10-20 08:44:33:576\'a1\'bf$GPGGA,004434.50,3957.36837374,N,11618.81504474,E,4,32,0.76,45.181,M,0.000,M,10.4,0000*48
\par 
\par \'a1\'be2020-10-20 08:44:33:592\'a1\'bf$GPRMC,004434.50,A,3957.36837374,N,11618.81504474,E,0.004,0.00,201020,,,N*67
\par 
\par \'a1\'be2020-10-20 08:44:33:607\'a1\'bf$GPCHC,2128,175492.50,179.42,0.46,-1.14,0.02,0.02,0.02,0.0240,0.0069,1.0026,39.95613956,116.31358408,45.18,-0.000,0.002,-0.002,0.002,32,30,42,10,2*42
\par 
\par \'a1\'be2020-10-20 08:44:33:686\'a1\'bf$GPGGA,004434.60,3957.36837377,N,11618.81504464,E,4,32,0.76,45.181,M,0.000,M,10.4,0000*49
\par 
\par \'a1\'be2020-10-20 08:44:33:701\'a1\'bf$GPRMC,004434.60,A,3957.36837377,N,11618.81504464,E,0.001,0.00,201020,,,N*63
\par 
\par \'a1\'be2020-10-20 08:44:33:701\'a1\'bf$GPCHC,2128,175492.60,179.42,0.46,-1.13,-0.01,0.02,-0.01,0.0184,0.0081,1.0016,39.95613956,116.31358408,45.18,-0.001,-0.000,0.002,0.001,32,30,42,10,2*48
\par 
\par \'a1\'be2020-10-20 08:44:34:045\'a1\'bf$GPGGA,004434.70,3957.36837384,N,11618.81504468,E,4,32,0.76,45.181,M,0.000,M,1.6,0000*7A
\par 
\par \'a1\'be2020-10-20 08:44:34:061\'a1\'bf$GPRMC,004434.70,A,3957.36837384,N,11618.81504468,E,0.016,0.00,201020,,,N*64
\par 
\par \'a1\'be2020-10-20 08:44:34:061\'a1\'bf$GPCHC,2128,175492.70,179.41,0.46,-1.13,-0.02,-0.06,0.02,0.0136,0.0080,1.0008,39.95613956,116.31358408,45.18,0.008,0.001,-0.002,0.008,32,30,42,2,2*56
\par 
\par \'a1\'be2020-10-20 08:44:34:092\'a1\'bf$GPGGA,004434.80,3957.36837391,N,11618.81504534,E,4,32,0.76,45.181,M,0.000,M,1.6,0000*79
\par 
\par \'a1\'be2020-10-20 08:44:34:107\'a1\'bf$GPRMC,004434.80,A,3957.36837391,N,11618.81504534,E,0.016,0.00,201020,,,N*67
\par 
\par \'a1\'be2020-10-20 08:44:34:107\'a1\'bf$GPCHC,2128,175492.80,179.42,0.46,-1.14,0.03,-0.09,0.01,0.0270,0.0066,1.0040,39.95613957,116.31358409,45.18,0.008,0.002,-0.002,0.008,32,30,42,2,2*7B
\par 
\par \'a1\'be2020-10-20 08:44:34:107\'a1\'bf$GPGGA,004434.90,3957.36837392,N,11618.81504462,E,4,32,0.76,45.181,M,0.000,M,1.8,0000*77
\par 
\par \'a1\'be2020-10-20 08:44:34:123\'a1\'bf$GPRMC,004434.90,A,3957.36837392,N,11618.81504462,E,0.009,0.00,201020,,,N*69
\par 
\par \'a1\'be2020-10-20 08:44:34:139\'a1\'bf$GPCHC,2128,175492.90,179.42,0.46,-1.14,0.05,0.06,0.02,0.0249,0.0072,1.0007,39.95613957,116.31358408,45.18,-0.004,0.003,0.001,0.004,32,30,42,2,2*52
\par 
\par \'a1\'be2020-10-20 08:44:34:139\'a1\'bf$GPGGA,004435.00,3957.36837404,N,11618.81504442,E,4,32,0.76,45.181,M,0.000,M,1.8,0000*75
\par 
\par \'a1\'be2020-10-20 08:44:34:154\'a1\'bf$GPRMC,004435.00,A,3957.36837404,N,11618.81504442,E,0.006,0.00,201020,,,N*64
\par 
\par \'a1\'be2020-10-20 08:44:34:154\'a1\'bf$GPCHC,2128,175493.00,179.42,0.47,-1.13,0.04,-0.02,-0.01,0.0122,0.0115,1.0053,39.95613957,116.31358407,45.18,0.002,0.002,-0.000,0.003,32,30,42,2,2*5B
\par 
\par \'a1\'be2020-10-20 08:44:34:186\'a1\'bf$GPGGA,004435.10,3957.36837404,N,11618.81504475,E,4,32,0.76,45.181,M,0.000,M,1.8,0000*70
\par 
\par \'a1\'be2020-10-20 08:44:34:186\'a1\'bf$GPRMC,004435.10,A,3957.36837404,N,11618.81504475,E,0.013,0.00,201020,,,N*65
\par 
\par \'a1\'be2020-10-20 08:44:34:201\'a1\'bf$GPCHC,2128,175493.10,179.42,0.47,-1.13,-0.02,-0.04,-0.02,0.0175,0.0055,0.9988,39.95613957,116.31358408,45.18,0.006,0.000,0.000,0.006,32,30,42,2,2*55
\par 
\par \'a1\'be2020-10-20 08:44:34:295\'a1\'bf$GPGGA,004435.20,3957.36837391,N,11618.81504488,E,4,32,0.76,45.181,M,0.000,M,2.0,0000*71
\par 
\par \'a1\'be2020-10-20 08:44:34:295\'a1\'bf$GPRMC,004435.20,A,3957.36837391,N,11618.81504488,E,0.005,0.00,201020,,,N*68
\par 
\par \'a1\'be2020-10-20 08:44:34:310\'a1\'bf$GPCHC,2128,175493.20,179.42,0.47,-1.13,0.07,0.02,-0.03,0.0273,0.0070,1.0042,39.95613957,116.31358408,45.18,-0.001,0.002,-0.000,0.002,32,30,42,2,2*50
\par 
\par \'a1\'be2020-10-20 08:44:34:404\'a1\'bf$GPGGA,004435.30,3957.36837389,N,11618.81504466,E,4,32,0.76,45.181,M,0.000,M,2.2,0000*7B
\par 
\par \'a1\'be2020-10-20 08:44:34:404\'a1\'bf$GPRMC,004435.30,A,3957.36837389,N,11618.81504466,E,0.005,0.00,201020,,,N*60
\par 
\par \'a1\'be2020-10-20 08:44:34:420\'a1\'bf$GPCHC,2128,175493.30,179.42,0.47,-1.13,-0.04,0.02,-0.04,0.0208,0.0128,1.0015,39.95613956,116.31358408,45.18,-0.001,-0.002,0.002,0.003,32,29,42,2,2*70
\par 
\par \'a1\'be2020-10-20 08:44:34:482\'a1\'bf$GPGGA,004435.40,3957.36837391,N,11618.81504462,E,4,32,0.76,45.181,M,0.000,M,2.2,0000*71
\par 
\par \'a1\'be2020-10-20 08:44:34:498\'a1\'bf$GPRMC,004435.40,A,3957.36837391,N,11618.81504462,E,0.009,0.00,201020,,,N*66
\par 
\par \'a1\'be2020-10-20 08:44:34:498\'a1\'bf$GPCHC,2128,175493.40,179.42,0.47,-1.13,0.02,-0.03,0.01,0.0134,0.0073,1.0035,39.95613957,116.31358408,45.18,0.004,0.001,-0.000,0.004,32,29,42,2,2*76
\par 
\par \'a1\'be2020-10-20 08:44:34:592\'a1\'bf$GPGGA,004435.50,3957.36837391,N,11618.81504496,E,4,32,0.76,45.181,M,0.000,M,2.4,0000*7D
\par 
\par \'a1\'be2020-10-20 08:44:34:607\'a1\'bf$GPRMC,004435.50,A,3957.36837391,N,11618.81504496,E,0.006,0.00,201020,,,N*63
\par 
\par \'a1\'be2020-10-20 08:44:34:607\'a1\'bf$GPCHC,2128,175493.50,179.42,0.47,-1.13,-0.03,-0.01,-0.03,0.0217,0.0064,1.0001,39.95613957,116.31358408,45.18,0.003,-0.000,0.001,0.003,32,29,42,2,2*75
\par 
\par \'a1\'be2020-10-20 08:44:34:685\'a1\'bf$GPGGA,004435.60,3957.36837402,N,11618.81504501,E,4,32,0.76,45.181,M,0.000,M,2.4,0000*7C
\par 
\par \'a1\'be2020-10-20 08:44:34:685\'a1\'bf$GPRMC,004435.60,A,3957.36837402,N,11618.81504501,E,0.000,0.00,201020,,,N*64
\par 
\par \'a1\'be2020-10-20 08:44:34:717\'a1\'bf$GPCHC,2128,175493.60,179.42,0.47,-1.13,-0.05,-0.02,0.02,0.0222,0.0110,1.0041,39.95613957,116.31358408,45.18,0.000,-0.000,0.002,0.000,32,29,42,2,2*5C
\par 
\par \'a1\'be2020-10-20 08:44:34:779\'a1\'bf$GPGGA,004435.70,3957.36837394,N,11618.81504483,E,4,32,0.76,45.181,M,0.000,M,2.6,0000*7C
\par 
\par \'a1\'be2020-10-20 08:44:34:795\'a1\'bf$GPRMC,004435.70,A,3957.36837394,N,11618.81504483,E,0.010,0.00,201020,,,N*67
\par 
\par \'a1\'be2020-10-20 08:44:34:795\'a1\'bf$GPCHC,2128,175493.70,179.42,0.47,-1.13,0.03,-0.04,-0.03,0.0176,0.0065,1.0007,39.95613957,116.31358408,45.18,0.005,0.001,-0.001,0.005,32,30,42,3,2*54
\par 
\par \'a1\'be2020-10-20 08:44:34:904\'a1\'bf$GPGGA,004435.80,3957.36837401,N,11618.81504501,E,4,32,0.76,45.181,M,0.000,M,2.6,0000*73
\par 
\par \'a1\'be2020-10-20 08:44:34:904\'a1\'bf$GPRMC,004435.80,A,3957.36837401,N,11618.81504501,E,0.005,0.00,201020,,,N*6C
\par 
\par \'a1\'be2020-10-20 08:44:34:920\'a1\'bf$GPCHC,2128,175493.80,179.42,0.47,-1.13,0.02,-0.01,-0.02,0.0202,0.0086,1.0023,39.95613957,116.31358408,45.18,0.002,0.001,-0.000,0.003,32,30,42,3,2*55
\par 
\par \'a1\'be2020-10-20 08:44:34:998\'a1\'bf$GPGGA,004435.90,3957.36837402,N,11618.81504469,E,4,32,0.76,45.181,M,0.000,M,1.8,0000*73
\par 
\par \'a1\'be2020-10-20 08:44:35:029\'a1\'bf$GPRMC,004435.90,A,3957.36837402,N,11618.81504469,E,0.002,0.00,201020,,,N*66
\par 
\par \'a1\'be2020-10-20 08:44:35:029\'a1\'bf$GPCHC,2128,175493.90,179.42,0.47,-1.13,0.03,0.02,-0.03,0.0204,0.0073,1.0001,39.95613957,116.31358408,45.18,-0.000,0.001,0.000,0.001,32,30,42,2,2*77
\par 
\par \'a1\'be2020-10-20 08:44:35:092\'a1\'bf$GPGGA,004436.00,3957.36837411,N,11618.81504475,E,4,32,0.76,45.181,M,0.000,M,1.8,0000*76
\par 
\par \'a1\'be2020-10-20 08:44:35:092\'a1\'bf$GPRMC,004436.00,A,3957.36837411,N,11618.81504475,E,0.008,0.00,201020,,,N*69
\par 
\par \'a1\'be2020-10-20 08:44:35:107\'a1\'bf$GPCHC,2128,175494.00,179.42,0.47,-1.13,0.05,-0.04,-0.00,0.0193,0.0089,1.0049,39.95613957,116.31358408,45.18,0.003,0.003,-0.001,0.004,32,30,42,2,2*56
\par 
\par \'a1\'be2020-10-20 08:44:35:185\'a1\'bf$GPGGA,004436.10,3957.36837420,N,11618.81504484,E,4,32,0.76,45.182,M,0.000,M,1.8,0000*78
\par 
\par \'a1\'be2020-10-20 08:44:35:201\'a1\'bf$GPRMC,004436.10,A,3957.36837420,N,11618.81504484,E,0.005,0.00,201020,,,N*69
\par 
\par \'a1\'be2020-10-20 08:44:35:201\'a1\'bf$GPCHC,2128,175494.10,179.42,0.47,-1.13,-0.01,0.01,0.00,0.0193,0.0073,1.0002,39.95613957,116.31358408,45.18,0.001,0.002,0.001,0.003,32,30,42,2,2*58
\par 
\par \'a1\'be2020-10-20 08:44:35:279\'a1\'bf$GPGGA,004436.20,3957.36837410,N,11618.81504462,E,4,32,0.76,45.181,M,0.000,M,2.0,0000*78
\par 
\par \'a1\'be2020-10-20 08:44:35:295\'a1\'bf$GPRMC,004436.20,A,3957.36837410,N,11618.81504462,E,0.005,0.00,201020,,,N*61
\par 
\par \'a1\'be2020-10-20 08:44:35:295\'a1\'bf$GPCHC,2128,175494.20,179.42,0.47,-1.13,-0.02,0.05,0.04,0.0193,0.0072,1.0024,39.95613957,116.31358408,45.18,-0.002,0.002,0.001,0.003,32,29,42,2,2*7B
\par 
\par \'a1\'be2020-10-20 08:44:35:404\'a1\'bf$GPGGA,004436.30,3957.36837409,N,11618.81504463,E,4,32,0.76,45.182,M,0.000,M,2.2,0000*71
\par 
\par \'a1\'be2020-10-20 08:44:35:420\'a1\'bf$GPRMC,004436.30,A,3957.36837409,N,11618.81504463,E,0.006,0.00,201020,,,N*6A
\par 
\par \'a1\'be2020-10-20 08:44:35:420\'a1\'bf$GPCHC,2128,175494.30,179.42,0.47,-1.13,0.03,-0.02,0.01,0.0202,0.0078,1.0026,39.95613957,116.31358408,45.18,0.001,0.003,-0.000,0.003,32,29,42,2,2*79
\par 
\par \'a1\'be2020-10-20 08:44:35:482\'a1\'bf$GPGGA,004436.40,3957.36837418,N,11618.81504465,E,4,32,0.76,45.182,M,0.000,M,2.2,0000*70
\par 
\par \'a1\'be2020-10-20 08:44:35:482\'a1\'bf$GPRMC,004436.40,A,3957.36837418,N,11618.81504465,E,0.007,0.00,201020,,,N*6A
\par 
\par \'a1\'be2020-10-20 08:44:35:498\'a1\'bf$GPCHC,2128,175494.40,179.42,0.47,-1.13,0.05,0.00,0.01,0.0192,0.0077,1.0023,39.95613957,116.31358408,45.18,0.001,0.003,-0.001,0.004,32,29,42,2,2*51
\par 
\par \'a1\'be2020-10-20 08:44:35:576\'a1\'bf$GPGGA,004436.50,3957.36837406,N,11618.81504451,E,4,32,0.76,45.182,M,0.000,M,2.4,0000*7F
\par 
\par \'a1\'be2020-10-20 08:44:35:576\'a1\'bf$GPRMC,004436.50,A,3957.36837406,N,11618.81504451,E,0.004,0.00,201020,,,N*60
\par 
\par \'a1\'be2020-10-20 08:44:35:592\'a1\'bf$GPCHC,2128,175494.50,179.42,0.47,-1.13,-0.03,-0.00,-0.03,0.0189,0.0136,0.9975,39.95613957,116.31358408,45.18,0.001,-0.001,-0.001,0.002,32,29,42,2,2*5C
\par 
\par \'a1\'be2020-10-20 08:44:35:701\'a1\'bf$GPGGA,004436.60,3957.36837383,N,11618.81504457,E,4,32,0.76,45.181,M,0.000,M,2.4,0000*73
\par 
\par \'a1\'be2020-10-20 08:44:35:701\'a1\'bf$GPRMC,004436.60,A,3957.36837383,N,11618.81504457,E,0.027,0.00,201020,,,N*6E
\par 
\par \'a1\'be2020-10-20 08:44:35:717\'a1\'bf$GPCHC,2128,175494.60,179.42,0.48,-1.13,0.03,-0.02,0.01,0.0211,0.0241,1.0050,39.95613956,116.31358408,45.18,0.001,-0.014,-0.002,0.014,32,29,42,2,2*56
\par 
\par \'a1\'be2020-10-20 08:44:35:795\'a1\'bf$GPGGA,004436.70,3957.36837331,N,11618.81504431,E,4,32,0.76,45.182,M,0.000,M,2.6,0000*7A
\par 
\par \'a1\'be2020-10-20 08:44:35:795\'a1\'bf$GPRMC,004436.70,A,3957.36837331,N,11618.81504431,E,0.047,0.00,201020,,,N*60
\par 
\par \'a1\'be2020-10-20 08:44:35:810\'a1\'bf$GPCHC,2128,175494.70,179.42,0.48,-1.13,0.07,0.01,0.02,0.0206,0.0194,1.0003,39.95613956,116.31358407,45.18,-0.001,-0.024,0.001,0.024,32,29,42,3,2*78
\par 
\par \'a1\'be2020-10-20 08:44:35:888\'a1\'bf$GPGGA,004436.80,3957.36837187,N,11618.81504437,E,4,32,0.76,45.181,M,0.000,M,2.6,0000*7F
\par 
\par \'a1\'be2020-10-20 08:44:35:888\'a1\'bf$GPRMC,004436.80,A,3957.36837187,N,11618.81504437,E,0.075,0.00,201020,,,N*67
\par 
\par \'a1\'be2020-10-20 08:44:35:904\'a1\'bf$GPCHC,2128,175494.80,179.42,0.49,-1.13,0.14,0.02,-0.04,0.0205,0.0341,1.0123,39.95613953,116.31358407,45.18,0.000,-0.039,-0.004,0.039,32,29,42,3,2*57
\par 
\par \'a1\'be2020-10-20 08:44:35:998\'a1\'bf$GPGGA,004436.90,3957.36837194,N,11618.81504394,E,4,32,0.76,45.181,M,0.000,M,1.8,0000*7F
\par 
\par \'a1\'be2020-10-20 08:44:35:998\'a1\'bf$GPRMC,004436.90,A,3957.36837194,N,11618.81504394,E,0.107,0.00,201020,,,N*6E
\par 
\par \'a1\'be2020-10-20 08:44:36:013\'a1\'bf$GPCHC,2128,175494.90,179.43,0.51,-1.13,0.11,-0.02,0.03,0.0214,0.0312,1.0010,39.95613953,116.31358407,45.18,-0.000,-0.055,-0.002,0.055,32,29,42,2,2*71
\par 
\par \'a1\'be2020-10-20 08:44:36:076\'a1\'bf$GPGGA,004437.00,3957.36836818,N,11618.81504391,E,4,32,0.76,45.180,M,0.000,M,1.8,0000*7F
\par 
\par \'a1\'be2020-10-20 08:44:36:076\'a1\'bf$GPRMC,004437.00,A,3957.36836818,N,11618.81504391,E,0.167,0.00,201020,,,N*69
\par 
\par \'a1\'be2020-10-20 08:44:36:092\'a1\'bf$GPCHC,2128,175495.00,179.43,0.53,-1.13,0.14,-0.01,0.01,0.0189,0.0441,1.0001,39.95613947,116.31358407,45.18,-0.000,-0.086,-0.005,0.086,32,29,42,2,2*7B
\par 
\par \'a1\'be2020-10-20 08:44:36:185\'a1\'bf$GPGGA,004437.10,3957.36836255,N,11618.81504388,E,4,32,0.76,45.180,M,0.000,M,1.8,0000*75
\par 
\par \'a1\'be2020-10-20 08:44:36:185\'a1\'bf$GPRMC,004437.10,A,3957.36836255,N,11618.81504388,E,0.229,0.00,201020,,,N*6A
\par 
\par \'a1\'be2020-10-20 08:44:36:201\'a1\'bf$GPCHC,2128,175495.10,179.43,0.53,-1.13,0.14,-0.02,0.02,0.0199,0.0487,0.9947,39.95613938,116.31358406,45.18,-0.001,-0.118,-0.003,0.118,32,29,42,2,2*7C
\par 
\par \'a1\'be2020-10-20 08:44:36:295\'a1\'bf$GPGGA,004437.20,3957.36835537,N,11618.81504240,E,4,32,0.76,45.180,M,0.000,M,2.0,0000*78
\par 
\par \'a1\'be2020-10-20 08:44:36:295\'a1\'bf$GPRMC,004437.20,A,3957.36835537,N,11618.81504240,E,0.312,0.00,201020,,,N*65
\par 
\par \'a1\'be2020-10-20 08:44:36:295\'a1\'bf$GPCHC,2128,175495.20,179.44,0.55,-1.12,0.16,0.12,-0.04,0.0196,0.0566,0.9987,39.95613926,116.31358404,45.18,-0.006,-0.160,-0.004,0.160,32,29,42,2,2*7A
\par 
\par \'a1\'be2020-10-20 08:44:36:420\'a1\'bf$GPGGA,004437.30,3957.36834631,N,11618.81503953,E,4,32,0.76,45.179,M,0.000,M,2.2,0000*77
\par 
\par \'a1\'be2020-10-20 08:44:36:435\'a1\'bf$GPRMC,004437.30,A,3957.36834631,N,11618.81503953,E,0.405,0.00,201020,,,N*6F
\par 
\par \'a1\'be2020-10-20 08:44:36:435\'a1\'bf$GPCHC,2128,175495.30,179.44,0.58,-1.12,0.25,-0.12,-0.06,0.0140,0.0632,0.9945,39.95613911,116.31358399,45.18,0.003,-0.208,-0.012,0.208,32,28,42,2,2*77
\par 
\par \'a1\'be2020-10-20 08:44:36:592\'a1\'bf$GPGGA,004437.40,3957.36833366,N,11618.81503988,E,4,32,0.76,45.177,M,0.000,M,2.2,0000*78
\par 
\par \'a1\'be2020-10-20 08:44:36:592\'a1\'bf$GPRMC,004437.40,A,3957.36833366,N,11618.81503988,E,0.518,0.00,201020,,,N*63
\par 
\par \'a1\'be2020-10-20 08:44:36:607\'a1\'bf$GPCHC,2128,175495.40,179.45,0.62,-1.14,0.46,-0.07,-0.07,0.0297,0.0852,0.9971,39.95613889,116.31358400,45.18,0.002,-0.266,-0.022,0.266,32,28,42,2,2*7D
\par 
\par \'a1\'be2020-10-20 08:44:36:623\'a1\'bf$GPGGA,004437.50,3957.36831906,N,11618.81503456,E,4,32,0.76,45.176,M,0.000,M,2.4,0000*7E
\par 
\par \'a1\'be2020-10-20 08:44:36:623\'a1\'bf$GPRMC,004437.50,A,3957.36831906,N,11618.81503456,E,0.676,179.90,201020,,,N*6F
\par 
\par \'a1\'be2020-10-20 08:44:36:638\'a1\'bf$GPCHC,2128,175495.50,179.46,0.66,-1.14,0.27,-0.20,-0.01,0.0230,0.0963,1.0103,39.95613865,116.31358391,45.18,0.001,-0.348,-0.011,0.348,32,30,42,2,2*73
\par 
\par \'a1\'be2020-10-20 08:44:36:685\'a1\'bf$GPGGA,004437.60,3957.36829829,N,11618.81503436,E,4,32,0.76,45.175,M,0.000,M,2.4,0000*7D
\par 
\par \'a1\'be2020-10-20 08:44:36:685\'a1\'bf$GPRMC,004437.60,A,3957.36829829,N,11618.81503436,E,0.813,180.40,201020,,,N*69
\par 
\par \'a1\'be2020-10-20 08:44:36:701\'a1\'bf$GPCHC,2128,175495.60,179.45,0.69,-1.15,0.31,-0.11,-0.03,0.0123,0.0761,0.9872,39.95613830,116.31358391,45.17,-0.003,-0.418,-0.015,0.418,32,30,42,2,2*54
\par 
\par \'a1\'be2020-10-20 08:44:36:795\'a1\'bf$GPGGA,004437.70,3957.36827799,N,11618.81502547,E,4,32,0.76,45.173,M,0.000,M,2.6,0000*74
\par 
\par \'a1\'be2020-10-20 08:44:36:795\'a1\'bf$GPRMC,004437.70,A,3957.36827799,N,11618.81502547,E,0.948,179.60,201020,,,N*6F
\par 
\par \'a1\'be2020-10-20 08:44:36:810\'a1\'bf$GPCHC,2128,175495.70,179.47,0.73,-1.16,0.33,-0.31,-0.10,0.0198,0.0940,1.0211,39.95613797,116.31358376,45.17,0.003,-0.488,-0.012,0.488,32,30,42,3,2*77
\par 
\par \'a1\'be2020-10-20 08:44:36:920\'a1\'bf$GPGGA,004437.80,3957.36824899,N,11618.81502512,E,4,32,0.76,45.174,M,0.000,M,2.6,0000*70
\par 
\par \'a1\'be2020-10-20 08:44:36:920\'a1\'bf$GPRMC,004437.80,A,3957.36824899,N,11618.81502512,E,1.135,181.53,201020,,,N*68
\par 
\par \'a1\'be2020-10-20 08:44:36:935\'a1\'bf$GPCHC,2128,175495.80,179.46,0.73,-1.18,-0.16,-0.03,0.10,0.0232,0.0962,1.0004,39.95613748,116.31358375,45.17,-0.016,-0.583,0.021,0.584,32,30,42,3,2*76
\par 
\par \'a1\'be2020-10-20 08:44:36:982\'a1\'bf$GPGGA,004437.90,3957.36822439,N,11618.81500665,E,4,30,0.76,45.176,M,0.000,M,1.8,0000*7D
\par 
\par \'a1\'be2020-10-20 08:44:36:982\'a1\'bf$GPRMC,004437.90,A,3957.36822439,N,11618.81500665,E,1.258,183.85,201020,,,N*69
\par 
\par \'a1\'be2020-10-20 08:44:36:998\'a1\'bf$GPCHC,2128,175495.90,179.47,0.74,-1.16,0.22,0.22,0.02,0.0337,0.1062,0.9940,39.95613707,116.31358344,45.18,-0.044,-0.646,0.003,0.647,30,28,42,2,2*78
\par 
\par \'a1\'be2020-10-20 08:44:37:092\'a1\'bf$GPGGA,004438.00,3957.36818676,N,11618.81500356,E,4,30,0.76,45.176,M,0.000,M,1.8,0000*7E
\par 
\par \'a1\'be2020-10-20 08:44:37:092\'a1\'bf$GPRMC,004438.00,A,3957.36818676,N,11618.81500356,E,1.473,183.45,201020,,,N*69
\par 
\par \'a1\'be2020-10-20 08:44:37:092\'a1\'bf$GPCHC,2128,175496.00,179.48,0.77,-1.13,0.04,0.21,0.00,0.0231,0.1315,1.0141,39.95613645,116.31358339,45.18,-0.046,-0.757,0.015,0.758,30,28,42,2,2*7D
\par 
\par \'a1\'be2020-10-20 08:44:37:185\'a1\'bf$GPGGA,004438.10,3957.36814252,N,11618.81500060,E,4,30,0.76,45.178,M,0.000,M,1.8,0000*79
\par 
\par \'a1\'be2020-10-20 08:44:37:185\'a1\'bf$GPRMC,004438.10,A,3957.36814252,N,11618.81500060,E,1.710,182.70,201020,,,N*61
\par 
\par \'a1\'be2020-10-20 08:44:37:201\'a1\'bf$GPCHC,2128,175496.10,179.48,0.75,-1.11,-0.30,0.20,0.05,-0.0002,0.1286,0.9963,39.95613571,116.31358334,45.18,-0.041,-0.879,0.026,0.880,30,28,42,2,2*71
\par 
\par \'a1\'be2020-10-20 08:44:37:295\'a1\'bf$GPGGA,004438.20,3957.36810939,N,11618.81497135,E,4,30,0.76,45.180,M,0.000,M,2.0,0000*7A
\par 
\par \'a1\'be2020-10-20 08:44:37:295\'a1\'bf$GPRMC,004438.20,A,3957.36810939,N,11618.81497135,E,1.887,183.24,201020,,,N*6F
\par 
\par \'a1\'be2020-10-20 08:44:37:310\'a1\'bf$GPCHC,2128,175496.20,179.51,0.77,-1.08,-0.06,0.14,-0.03,0.0161,0.1371,0.9869,39.95613516,116.31358286,45.18,-0.055,-0.969,0.012,0.971,30,27,42,2,2*79
\par 
\par \'a1\'be2020-10-20 08:44:37:388\'a1\'bf$GPGGA,004438.30,3957.36807810,N,11618.81492897,E,4,30,0.76,45.182,M,0.000,M,2.2,0000*73
\par 
\par \'a1\'be2020-10-20 08:44:37:404\'a1\'bf$GPRMC,004438.30,A,3957.36807810,N,11618.81492897,E,2.123,185.35,201020,,,N*64
\par 
\par \'a1\'be2020-10-20 08:44:37:420\'a1\'bf$GPCHC,2128,175496.30,179.57,0.81,-1.01,-0.44,0.49,-0.20,0.0305,0.1470,1.0100,39.95613464,116.31358215,45.18,-0.102,-1.087,0.034,1.092,30,27,42,2,2*7D
\par 
\par \'a1\'be2020-10-20 08:44:37:498\'a1\'bf$GPGGA,004438.40,3957.36801615,N,11618.81492136,E,4,30,0.76,45.186,M,0.000,M,2.2,0000*7F
\par 
\par \'a1\'be2020-10-20 08:44:37:498\'a1\'bf$GPRMC,004438.40,A,3957.36801615,N,11618.81492136,E,2.368,185.64,201020,,,N*65
\par 
\par \'a1\'be2020-10-20 08:44:37:498\'a1\'bf$GPCHC,2128,175496.40,179.59,0.79,-0.95,-0.23,0.72,-0.22,0.0238,0.1489,1.0129,39.95613360,116.31358202,45.19,-0.120,-1.212,0.039,1.218,30,27,42,2,2*71
\par 
\par \'a1\'be2020-10-20 08:44:37:607\'a1\'bf$GPGGA,004438.50,3957.36798311,N,11618.81486018,E,4,30,0.76,45.193,M,0.000,M,2.4,0000*7A
\par 
\par \'a1\'be2020-10-20 08:44:37:607\'a1\'bf$GPRMC,004438.50,A,3957.36798311,N,11618.81486018,E,2.658,188.95,201020,,,N*67
\par 
\par \'a1\'be2020-10-20 08:44:37:623\'a1\'bf$GPCHC,2128,175496.50,179.66,0.79,-0.78,-1.48,1.62,0.10,0.0159,0.1908,1.1053,39.95613305,116.31358100,45.19,-0.213,-1.351,0.148,1.367,30,26,42,2,2*5A
\par 
\par \'a1\'be2020-10-20 08:44:37:701\'a1\'bf$GPGGA,004438.60,3957.36790455,N,11618.81484829,E,4,30,0.76,45.210,M,0.000,M,2.4,0000*76
\par 
\par \'a1\'be2020-10-20 08:44:37:716\'a1\'bf$GPRMC,004438.60,A,3957.36790455,N,11618.81484829,E,2.950,185.54,201020,,,N*64
\par 
\par \'a1\'be2020-10-20 08:44:37:716\'a1\'bf$GPCHC,2128,175496.60,179.67,0.56,-0.69,-2.04,0.30,-0.13,0.0168,0.0961,0.8617,39.95613174,116.31358080,45.21,-0.147,-1.510,0.137,1.517,30,26,42,2,2*7A
\par 
\par \'a1\'be2020-10-20 08:44:37:779\'a1\'bf$GPGGA,004438.70,3957.36787751,N,11618.81477098,E,4,30,0.76,45.208,M,0.000,M,2.6,0000*73
\par 
\par \'a1\'be2020-10-20 08:44:37:779\'a1\'bf$GPRMC,004438.70,A,3957.36787751,N,11618.81477098,E,2.818,188.48,201020,,,N*67
\par 
\par \'a1\'be2020-10-20 08:44:37:795\'a1\'bf$GPCHC,2128,175496.70,179.79,0.64,-0.51,1.40,1.05,-0.13,-0.0603,0.1044,0.9530,39.95613129,116.31357952,45.21,-0.214,-1.434,-0.054,1.450,30,24,42,3,2*53
\par 
\par \'a1\'be2020-10-20 08:44:37:920\'a1\'bf$GPGGA,004438.80,3957.36779597,N,11618.81476046,E,4,30,0.76,45.203,M,0.000,M,2.6,0000*7C
\par 
\par \'a1\'be2020-10-20 08:44:37:920\'a1\'bf$GPRMC,004438.80,A,3957.36779597,N,11618.81476046,E,3.185,185.72,201020,,,N*6B
\par 
\par \'a1\'be2020-10-20 08:44:37:935\'a1\'bf$GPCHC,2128,175496.80,179.79,0.77,-0.54,0.04,-0.30,0.27,0.0355,0.2137,1.1111,39.95612993,116.31357934,45.20,-0.163,-1.630,0.022,1.639,30,24,42,3,2*54
\par 
\par \'a1\'be2020-10-20 08:44:37:982\'a1\'bf$GPGGA,004438.90,3957.36777398,N,11618.81466396,E,4,28,0.76,45.214,M,0.000,M,1.8,0000*77
\par 
\par \'a1\'be2020-10-20 08:44:37:982\'a1\'bf$GPRMC,004438.90,A,3957.36777398,N,11618.81466396,E,3.311,187.06,201020,,,N*6C
\par 
\par \'a1\'be2020-10-20 08:44:37:998\'a1\'bf$GPCHC,2128,175496.90,179.93,0.81,-0.48,-1.00,-0.62,0.29,-0.0133,0.0595,0.9674,39.95612957,116.31357773,45.21,-0.209,-1.691,0.065,1.704,28,24,42,2,2*5C
\par 
\par \'a1\'be2020-10-20 08:44:38:107\'a1\'bf$GPGGA,004439.00,3957.36768386,N,11618.81465029,E,4,28,0.76,45.214,M,0.000,M,1.8,0000*7A
\par 
\par \'a1\'be2020-10-20 08:44:38:123\'a1\'bf$GPRMC,004439.00,A,3957.36768386,N,11618.81465029,E,3.262,187.95,201020,,,N*6E
\par 
\par \'a1\'be2020-10-20 08:44:38:123\'a1\'bf$GPCHC,2128,175497.00,179.92,0.86,-0.55,1.35,-0.21,0.17,0.0058,0.0717,0.9848,39.95612806,116.31357750,45.21,-0.232,-1.662,-0.022,1.678,28,24,42,2,2*73
\par 
\par \'a1\'be2020-10-20 08:44:38:170\'a1\'bf$GPGGA,004439.10,3957.36759058,N,11618.81463690,E,4,28,0.76,45.214,M,0.000,M,1.8,0000*7B
\par 
\par \'a1\'be2020-10-20 08:44:38:185\'a1\'bf$GPRMC,004439.10,A,3957.36759058,N,11618.81463690,E,3.506,186.73,201020,,,N*63
\par 
\par \'a1\'be2020-10-20 08:44:38:201\'a1\'bf$GPCHC,2128,175497.10,179.89,0.92,-0.61,-0.17,-0.74,0.23,0.0207,0.0770,1.0114,39.95612651,116.31357728,45.21,-0.211,-1.791,0.017,1.803,28,24,42,2,2*76
\par 
\par \'a1\'be2020-10-20 08:44:38:279\'a1\'bf$GPGGA,004439.20,3957.36759337,N,11618.81451990,E,4,28,0.72,45.218,M,0.000,M,2.0,0000*7F
\par 
\par \'a1\'be2020-10-20 08:44:38:295\'a1\'bf$GPRMC,004439.20,A,3957.36759337,N,11618.81451990,E,3.376,189.64,201020,,,N*6C
\par 
\par \'a1\'be2020-10-20 08:44:38:310\'a1\'bf$GPCHC,2128,175497.20,180.13,1.09,-0.60,0.07,-0.68,0.27,0.0094,0.0438,1.0191,39.95612656,116.31357533,45.22,-0.291,-1.712,0.027,1.737,28,24,42,2,2*59
\par 
\par \'a1\'be2020-10-20 08:44:38:388\'a1\'bf$GPGGA,004439.30,3957.36750031,N,11618.81450186,E,5,28,0.72,45.220,M,0.000,M,2.2,0000*74
\par 
\par \'a1\'be2020-10-20 08:44:38:404\'a1\'bf$GPRMC,004439.30,A,3957.36750031,N,11618.81450186,E,3.456,191.37,201020,,,N*65
\par 
\par \'a1\'be2020-10-20 08:44:38:404\'a1\'bf$GPCHC,2128,175497.30,180.13,1.12,-0.62,0.39,0.58,0.10,0.0425,0.0534,0.9703,39.95612501,116.31357503,45.22,-0.351,-1.743,0.033,1.778,28,23,52,2,2*72
\par 
\par \'a1\'be2020-10-20 08:44:38:482\'a1\'bf$GPGGA,004439.40,3957.36740551,N,11618.81447957,E,5,28,0.72,45.223,M,0.000,M,2.2,0000*70
\par 
\par \'a1\'be2020-10-20 08:44:38:482\'a1\'bf$GPRMC,004439.40,A,3957.36740551,N,11618.81447957,E,3.521,191.66,201020,,,N*67
\par 
\par \'a1\'be2020-10-20 08:44:38:498\'a1\'bf$GPCHC,2128,175497.40,180.11,1.16,-0.58,0.45,0.47,0.43,0.0337,0.0729,1.0054,39.95612343,116.31357466,45.22,-0.366,-1.774,0.024,1.811,28,23,52,2,2*7A
\par 
\par \'a1\'be2020-10-20 08:44:38:607\'a1\'bf$GPGGA,004439.50,3957.36730859,N,11618.81446208,E,5,27,0.72,45.228,M,0.000,M,2.4,0000*71
\par 
\par \'a1\'be2020-10-20 08:44:38:607\'a1\'bf$GPRMC,004439.50,A,3957.36730859,N,11618.81446208,E,3.686,193.47,201020,,,N*6B
\par 
\par \'a1\'be2020-10-20 08:44:38:623\'a1\'bf$GPCHC,2128,175497.50,180.04,1.16,-0.49,-0.48,1.80,0.75,0.0640,0.0675,0.9994,39.95612181,116.31357437,45.23,-0.442,-1.844,0.073,1.896,27,22,52,2,2*57
\par 
\par \'a1\'be2020-10-20 08:44:38:685\'a1\'bf$GPGGA,004439.60,3957.36720877,N,11618.81443521,E,5,27,0.72,45.233,M,0.000,M,2.4,0000*7C
\par 
\par \'a1\'be2020-10-20 08:44:38:685\'a1\'bf$GPRMC,004439.60,A,3957.36720877,N,11618.81443521,E,3.671,193.82,201020,,,N*6D
\par 
\par \'a1\'be2020-10-20 08:44:38:701\'a1\'bf$GPCHC,2128,175497.60,180.00,1.16,-0.30,0.80,2.05,0.24,0.0658,-0.0219,0.8898,39.95612015,116.31357392,45.23,-0.451,-1.834,0.008,1.888,27,22,52,2,2*59
\par 
\par \'a1\'be2020-10-20 08:44:38:795\'a1\'bf$GPGGA,004439.70,3957.36711210,N,11618.81441733,E,5,26,0.72,45.233,M,0.000,M,2.6,0000*74
\par 
\par \'a1\'be2020-10-20 08:44:38:795\'a1\'bf$GPRMC,004439.70,A,3957.36711210,N,11618.81441733,E,3.731,192.45,201020,,,N*69
\par 
\par \'a1\'be2020-10-20 08:44:38:810\'a1\'bf$GPCHC,2128,175497.70,179.97,1.32,-0.05,0.79,1.60,0.25,-0.1084,0.1362,1.1972,39.95611854,116.31357362,45.23,-0.414,-1.874,0.046,1.919,26,21,52,3,2*54
\par 
\par \'a1\'be2020-10-20 08:44:38:873\'a1\'bf$GPGGA,004439.80,3957.36700690,N,11618.81440157,E,5,26,0.72,45.243,M,0.000,M,2.6,0000*75
\par 
\par \'a1\'be2020-10-20 08:44:38:888\'a1\'bf$GPRMC,004439.80,A,3957.36700690,N,11618.81440157,E,3.846,187.19,201020,,,N*6D
\par 
\par \'a1\'be2020-10-20 08:44:38:904\'a1\'bf$GPCHC,2128,175497.80,179.97,1.26,-0.08,-0.49,-0.95,-0.14,-0.0605,-0.0078,0.9235,39.95611678,116.31357336,45.24,-0.248,-1.963,0.092,1.978,26,21,52,3,2*5F
\par 
\par \'a1\'be2020-10-20 08:44:38:998\'a1\'bf$GPGGA,004439.90,3957.36690519,N,11618.81440623,E,5,26,0.72,45.244,M,0.000,M,2.8,0000*73
\par 
\par \'a1\'be2020-10-20 08:44:38:998\'a1\'bf$GPRMC,004439.90,A,3957.36690519,N,11618.81440623,E,3.739,185.88,201020,,,N*6F
\par 
\par \'a1\'be2020-10-20 08:44:39:013\'a1\'bf$GPCHC,2128,175497.90,180.01,1.32,-0.22,1.06,-1.36,-0.51,0.0656,0.0688,0.9962,39.95611509,116.31357344,45.24,-0.197,-1.913,-0.017,1.924,26,21,52,3,2*5D
\par 
\par \'a1\'be2020-10-20 08:44:39:091\'a1\'bf$GPGGA,004440.00,3957.36679914,N,11618.81439522,E,5,26,0.72,45.249,M,0.000,M,2.8,0000*73
\par 
\par \'a1\'be2020-10-20 08:44:39:107\'a1\'bf$GPRMC,004440.00,A,3957.36679914,N,11618.81439522,E,3.980,188.01,201020,,,N*62
\par 
\par \'a1\'be2020-10-20 08:44:39:107\'a1\'bf$GPCHC,2128,175498.00,180.05,1.32,-0.28,-0.91,-0.11,-0.26,0.0418,0.0852,1.0622,39.95611332,116.31357325,45.25,-0.285,-2.028,0.102,2.048,26,21,52,3,2*53
\par 
\par \'a1\'be2020-10-20 08:44:39:201\'a1\'bf$GPGGA,004440.10,3957.36669064,N,11618.81438287,E,5,26,0.72,45.258,M,0.000,M,2.8,0000*74
\par 
\par \'a1\'be2020-10-20 08:44:39:201\'a1\'bf$GPRMC,004440.10,A,3957.36669064,N,11618.81438287,E,3.903,188.13,201020,,,N*6D
\par 
\par \'a1\'be2020-10-20 08:44:39:216\'a1\'bf$GPCHC,2128,175498.10,180.06,1.27,-0.32,0.13,-0.24,0.03,-0.0069,-0.0103,0.9160,39.95611151,116.31357305,45.26,-0.284,-1.988,0.050,2.008,26,21,52,3,2*56
\par 
\par \'a1\'be2020-10-20 08:44:39:279\'a1\'bf$GPGGA,004440.20,3957.36658572,N,11618.81438779,E,5,25,0.78,45.259,M,0.000,M,3.0,0000*72
\par 
\par \'a1\'be2020-10-20 08:44:39:279\'a1\'bf$GPRMC,004440.20,A,3957.36658572,N,11618.81438779,E,3.947,186.06,201020,,,N*60
\par 
\par \'a1\'be2020-10-20 08:44:39:294\'a1\'bf$GPCHC,2128,175498.20,180.09,1.30,-0.37,-0.04,-0.66,-0.55,-0.0321,0.0623,1.0307,39.95610976,116.31357313,45.26,-0.214,-2.019,0.022,2.031,25,21,52,3,2*7A
\par 
\par \'a1\'be2020-10-20 08:44:39:388\'a1\'bf$GPGGA,004440.30,3957.36647967,N,11618.81439433,E,5,25,0.78,45.262,M,0.000,M,3.2,0000*73
\par 
\par \'a1\'be2020-10-20 08:44:39:388\'a1\'bf$GPRMC,004440.30,A,3957.36647967,N,11618.81439433,E,3.940,185.98,201020,,,N*68
\par 
\par \'a1\'be2020-10-20 08:44:39:404\'a1\'bf$GPCHC,2128,175498.30,180.13,1.29,-0.48,0.02,-0.74,-0.23,0.0368,0.0226,1.0094,39.95610799,116.31357324,45.26,-0.211,-2.016,0.058,2.027,25,22,52,3,2*79
\par 
\par \'a1\'be2020-10-20 08:44:39:482\'a1\'bf$GPGGA,004440.40,3957.36637209,N,11618.81438552,E,5,25,0.78,45.266,M,0.000,M,3.2,0000*73
\par 
\par \'a1\'be2020-10-20 08:44:39:498\'a1\'bf$GPRMC,004440.40,A,3957.36637209,N,11618.81438552,E,3.952,186.49,201020,,,N*60
\par 
\par \'a1\'be2020-10-20 08:44:39:513\'a1\'bf$GPCHC,2128,175498.40,180.14,1.31,-0.55,0.02,-0.75,0.03,0.0326,0.0424,0.9501,39.95610620,116.31357309,45.27,-0.230,-2.020,0.021,2.033,25,22,52,3,2*5D
\par 
\par \'a1\'be2020-10-20 08:44:39:591\'a1\'bf$GPGGA,004440.50,3957.36626592,N,11618.81439061,E,5,25,0.78,45.268,M,0.000,M,3.4,0000*7B
\par 
\par \'a1\'be2020-10-20 08:44:39:591\'a1\'bf$GPRMC,004440.50,A,3957.36626592,N,11618.81439061,E,3.999,186.26,201020,,,N*6E
\par 
\par \'a1\'be2020-10-20 08:44:39:607\'a1\'bf$GPCHC,2128,175498.50,180.16,1.29,-0.61,-0.34,-0.32,-0.25,-0.0296,0.0349,1.0774,39.95610443,116.31357318,45.27,-0.224,-2.045,0.052,2.058,25,22,52,3,2*79
\par 
\par \'a1\'be2020-10-20 08:44:39:701\'a1\'bf$GPGGA,004440.60,3957.36615556,N,11618.81438495,E,5,25,0.78,45.275,M,0.000,M,3.4,0000*72
\par 
\par \'a1\'be2020-10-20 08:44:39:716\'a1\'bf$GPRMC,004440.60,A,3957.36615556,N,11618.81438495,E,4.076,184.85,201020,,,N*6F
\par 
\par \'a1\'be2020-10-20 08:44:39:716\'a1\'bf$GPCHC,2128,175498.60,180.21,1.25,-0.71,-0.86,-0.89,-0.52,0.0216,0.0599,0.9980,39.95610259,116.31357308,45.28,-0.177,-2.089,0.096,2.097,25,22,52,3,2*54
\par 
\par \'a1\'be2020-10-20 08:44:39:795\'a1\'bf$GPGGA,004440.70,3957.36604706,N,11618.81439303,E,5,25,0.78,45.282,M,0.000,M,3.6,0000*77
\par 
\par \'a1\'be2020-10-20 08:44:39:810\'a1\'bf$GPRMC,004440.70,A,3957.36604706,N,11618.81439303,E,4.032,185.14,201020,,,N*69
\par 
\par \'a1\'be2020-10-20 08:44:39:810\'a1\'bf$GPCHC,2128,175498.70,180.24,1.15,-0.79,-0.63,-0.80,-0.19,0.0432,-0.0174,0.9655,39.95610078,116.31357322,45.28,-0.186,-2.066,0.057,2.074,25,21,52,4,2*79
\par 
\par \'a1\'be2020-10-20 08:44:39:904\'a1\'bf$GPGGA,004440.80,3957.36593780,N,11618.81438516,E,5,25,0.78,45.286,M,0.000,M,3.6,0000*7C
\par 
\par \'a1\'be2020-10-20 08:44:39:919\'a1\'bf$GPRMC,004440.80,A,3957.36593780,N,11618.81438516,E,4.029,186.53,201020,,,N*6C
\par 
\par \'a1\'be2020-10-20 08:44:39:935\'a1\'bf$GPCHC,2128,175498.80,180.26,1.15,-0.84,-0.21,0.03,-0.18,0.0322,0.0742,1.0216,39.95609896,116.31357309,45.29,-0.236,-2.059,0.060,2.073,25,21,52,4,2*7B
\par 
\par \'a1\'be2020-10-20 08:44:39:982\'a1\'bf$GPGGA,004440.90,3957.36582966,N,11618.81438963,E,5,25,0.78,45.292,M,0.000,M,3.8,0000*7E
\par 
\par \'a1\'be2020-10-20 08:44:39:982\'a1\'bf$GPRMC,004440.90,A,3957.36582966,N,11618.81438963,E,4.124,186.28,201020,,,N*65
\par 
\par \'a1\'be2020-10-20 08:44:39:998\'a1\'bf$GPCHC,2128,175498.90,180.29,1.05,-0.82,-1.18,0.29,-0.21,-0.0076,0.0111,0.9927,39.95609716,116.31357316,45.29,-0.232,-2.109,0.096,2.122,25,20,52,4,2*51
\par 
\par \'a1\'be2020-10-20 08:44:40:091\'a1\'bf$GPGGA,004441.00,3957.36571999,N,11618.81438310,E,5,25,0.78,45.295,M,0.000,M,3.8,0000*73
\par 
\par \'a1\'be2020-10-20 08:44:40:107\'a1\'bf$GPRMC,004441.00,A,3957.36571999,N,11618.81438310,E,3.934,185.31,201020,,,N*6A
\par 
\par \'a1\'be2020-10-20 08:44:40:107\'a1\'bf$GPCHC,2128,175499.00,180.30,1.06,-0.90,0.87,-0.84,0.06,0.0409,0.0136,0.9871,39.95609533,116.31357305,45.29,-0.187,-2.015,0.004,2.024,25,20,52,4,2*55
\par 
\par \'a1\'be2020-10-20 08:44:40:185\'a1\'bf$GPGGA,004441.10,3957.36560970,N,11618.81437683,E,5,25,0.78,45.299,M,0.000,M,3.8,0000*79
\par 
\par \'a1\'be2020-10-20 08:44:40:201\'a1\'bf$GPRMC,004441.10,A,3957.36560970,N,11618.81437683,E,4.151,184.89,201020,,,N*62
\par 
\par \'a1\'be2020-10-20 08:44:40:201\'a1\'bf$GPCHC,2128,175499.10,180.30,1.05,-0.94,-1.31,-0.52,-0.26,-0.0156,0.0398,1.0440,39.95609350,116.31357295,45.30,-0.182,-2.128,0.094,2.135,25,20,52,4,2*75
\par 
\par \'a1\'be2020-10-20 08:44:40:279\'a1\'bf$GPGGA,004441.20,3957.36550197,N,11618.81438798,E,5,25,0.78,45.303,M,0.000,M,4.0,0000*71
\par 
\par \'a1\'be2020-10-20 08:44:40:279\'a1\'bf$GPRMC,004441.20,A,3957.36550197,N,11618.81438798,E,4.009,185.19,201020,,,N*63
\par 
\par \'a1\'be2020-10-20 08:44:40:294\'a1\'bf$GPCHC,2128,175499.20,180.34,0.99,-1.01,0.15,-0.18,-0.26,0.0709,-0.0189,0.9480,39.95609170,116.31357313,45.30,-0.187,-2.054,0.043,2.063,25,20,52,4,2*5D
\par 
\par \'a1\'be2020-10-20 08:44:40:388\'a1\'bf$GPGGA,004441.30,3957.36539795,N,11618.81439437,E,5,26,0.78,45.304,M,0.000,M,4.2,0000*7A
\par 
\par \'a1\'be2020-10-20 08:44:40:404\'a1\'bf$GPRMC,004441.30,A,3957.36539795,N,11618.81439437,E,4.011,184.55,201020,,,N*6E
\par 
\par \'a1\'be2020-10-20 08:44:40:419\'a1\'bf$GPCHC,2128,175499.30,180.36,1.02,-1.02,0.08,-0.47,-0.11,0.0074,0.0382,1.0212,39.95608997,116.31357324,45.30,-0.164,-2.057,0.045,2.063,26,20,52,4,2*7F
\par 
\par \'a1\'be2020-10-20 08:44:40:466\'a1\'bf$GPGGA,004441.40,3957.36528883,N,11618.81438899,E,5,26,0.78,45.307,M,0.000,M,4.2,0000*7F
\par 
\par \'a1\'be2020-10-20 08:44:40:482\'a1\'bf$GPRMC,004441.40,A,3957.36528883,N,11618.81438899,E,4.004,185.14,201020,,,N*68
\par 
\par \'a1\'be2020-10-20 08:44:40:482\'a1\'bf$GPCHC,2128,175499.40,180.37,1.03,-1.07,0.04,0.01,-0.12,0.0258,0.0185,0.9910,39.95608815,116.31357315,45.31,-0.185,-2.051,0.039,2.060,26,20,52,4,2*5C
\par 
\par \'a1\'be2020-10-20 08:44:40:591\'a1\'bf$GPGGA,004441.50,3957.36518440,N,11618.81439689,E,5,26,0.78,45.310,M,0.000,M,4.4,0000*70
\par 
\par \'a1\'be2020-10-20 08:44:40:607\'a1\'bf$GPRMC,004441.50,A,3957.36518440,N,11618.81439689,E,4.054,183.98,201020,,,N*60
\par 
\par \'a1\'be2020-10-20 08:44:40:607\'a1\'bf$GPCHC,2128,175499.50,180.39,1.02,-1.11,-0.56,-0.65,-0.17,0.0356,0.0184,1.0190,39.95608641,116.31357328,45.31,-0.145,-2.080,0.065,2.085,26,13,52,4,2*50
\par 
\par \'a1\'be2020-10-20 08:44:40:685\'a1\'bf$GPGGA,004441.60,3957.36507601,N,11618.81439045,E,5,26,0.78,45.313,M,0.000,M,4.4,0000*7F
\par 
\par \'a1\'be2020-10-20 08:44:40:685\'a1\'bf$GPRMC,004441.60,A,3957.36507601,N,11618.81439045,E,3.926,186.14,201020,,,N*66
\par 
\par \'a1\'be2020-10-20 08:44:40:701\'a1\'bf$GPCHC,2128,175499.60,180.38,1.04,-1.11,0.80,0.65,0.07,0.0382,-0.0076,0.9337,39.95608460,116.31357317,45.31,-0.216,-2.008,0.008,2.020,26,13,52,4,2*50
\par 
\par \'a1\'be2020-10-20 08:44:40:779\'a1\'bf$GPGGA,004441.70,3957.36497355,N,11618.81439580,E,5,27,0.78,45.315,M,0.000,M,4.6,0000*7B
\par 
\par \'a1\'be2020-10-20 08:44:40:779\'a1\'bf$GPRMC,004441.70,A,3957.36497355,N,11618.81439580,E,4.073,185.13,201020,,,N*6D
\par 
\par \'a1\'be2020-10-20 08:44:40:794\'a1\'bf$GPCHC,2128,175499.70,180.40,1.05,-1.09,-1.02,0.36,-0.43,0.0396,0.0506,1.1204,39.95608289,116.31357326,45.31,-0.187,-2.087,0.095,2.095,27,14,52,5,2*7B
\par 
\par \'a1\'be2020-10-20 08:44:40:888\'a1\'bf$GPGGA,004441.80,3957.36486305,N,11618.81438924,E,5,27,0.78,45.326,M,0.000,M,4.6,0000*72
\par 
\par \'a1\'be2020-10-20 08:44:40:904\'a1\'bf$GPRMC,004441.80,A,3957.36486305,N,11618.81438924,E,4.025,184.37,201020,,,N*60
\par 
\par \'a1\'be2020-10-20 08:44:40:904\'a1\'bf$GPCHC,2128,175499.80,180.44,0.93,-1.06,-1.03,0.03,-0.17,-0.0127,-0.0318,0.9200,39.95608105,116.31357315,45.33,-0.158,-2.065,0.102,2.071,27,14,52,5,2*75
\par 
\par \'a1\'be2020-10-20 08:44:41:279\'a1\'bf$GPGGA,004441.90,3957.36476333,N,11618.81439706,E,5,27,0.78,45.326,M,0.000,M,4.8,0000*78
\par 
\par \'a1\'be2020-10-20 08:44:41:294\'a1\'bf$GPRMC,004441.90,A,3957.36476333,N,11618.81439706,E,3.867,183.77,201020,,,N*6E
\par 
\par \'a1\'be2020-10-20 08:44:41:294\'a1\'bf$GPCHC,2128,175499.90,180.46,0.94,-1.12,0.42,-0.32,-0.12,0.0499,0.0230,1.0078,39.95607939,116.31357328,45.33,-0.131,-1.985,0.002,1.989,27,18,52,5,2*74
\par 
\par \'a1\'be2020-10-20 08:44:41:310\'a1\'bf$GPGGA,004442.00,3957.36465694,N,11618.81439210,E,5,27,0.78,45.331,M,0.000,M,4.8,0000*7C
\par 
\par \'a1\'be2020-10-20 08:44:41:326\'a1\'bf$GPRMC,004442.00,A,3957.36465694,N,11618.81439210,E,3.960,184.39,201020,,,N*67
\par 
\par \'a1\'be2020-10-20 08:44:41:326\'a1\'bf$GPCHC,2128,175500.00,180.48,0.91,-1.12,-0.74,-0.02,-0.19,0.0537,0.0068,1.0376,39.95607762,116.31357320,45.33,-0.156,-2.031,0.096,2.037,27,18,52,5,2*5E
\par 
\par \'a1\'be2020-10-20 08:44:41:341\'a1\'bf$GPGGA,004442.10,3957.36455033,N,11618.81438573,E,5,27,0.78,45.339,M,0.000,M,4.8,0000*7E
\par 
\par \'a1\'be2020-10-20 08:44:41:357\'a1\'bf$GPRMC,004442.10,A,3957.36455033,N,11618.81438573,E,3.916,185.26,201020,,,N*63
\par 
\par \'a1\'be2020-10-20 08:44:41:357\'a1\'bf$GPCHC,2128,175500.10,180.48,0.86,-1.11,-0.51,0.37,0.04,0.0116,-0.0166,0.9020,39.95607584,116.31357310,45.34,-0.185,-2.006,0.060,2.015,27,18,52,5,2*77
\par 
\par \'a1\'be2020-10-20 08:44:41:372\'a1\'bf$GPGGA,004442.20,3957.36445404,N,11618.81439283,E,5,26,0.83,45.335,M,0.000,M,5.0,0000*75
\par 
\par \'a1\'be2020-10-20 08:44:41:388\'a1\'bf$GPRMC,004442.20,A,3957.36445404,N,11618.81439283,E,3.810,182.52,201020,,,N*6B
\par 
\par \'a1\'be2020-10-20 08:44:41:388\'a1\'bf$GPCHC,2128,175500.20,180.49,0.90,-1.15,0.58,-1.18,-0.30,-0.0125,0.0374,1.0845,39.95607423,116.31357321,45.34,-0.086,-1.958,-0.019,1.960,26,11,52,5,2*75
\par 
\par \'a1\'be2020-10-20 08:44:41:404\'a1\'bf$GPGGA,004442.30,3957.36435702,N,11618.81439952,E,5,27,0.83,45.340,M,0.000,M,5.2,0000*70
\par 
\par \'a1\'be2020-10-20 08:44:41:404\'a1\'bf$GPRMC,004442.30,A,3957.36435702,N,11618.81439952,E,3.962,184.39,201020,,,N*60
\par 
\par \'a1\'be2020-10-20 08:44:41:419\'a1\'bf$GPCHC,2128,175500.30,180.53,0.86,-1.18,-1.01,0.70,-0.44,0.0630,0.0367,1.0018,39.95607262,116.31357333,45.34,-0.156,-2.032,0.121,2.038,27,14,52,5,2*76
\par 
\par \'a1\'be2020-10-20 08:44:41:498\'a1\'bf$GPGGA,004442.40,3957.36425247,N,11618.81439290,E,5,27,0.83,45.345,M,0.000,M,5.2,0000*72
\par 
\par \'a1\'be2020-10-20 08:44:41:498\'a1\'bf$GPRMC,004442.40,A,3957.36425247,N,11618.81439290,E,3.754,184.76,201020,,,N*67
\par 
\par \'a1\'be2020-10-20 08:44:41:513\'a1\'bf$GPCHC,2128,175500.40,180.56,0.82,-1.14,0.83,0.25,-0.18,0.0427,-0.0424,0.9115,39.95607087,116.31357322,45.35,-0.160,-1.924,-0.011,1.931,27,14,52,5,2*52
\par 
\par \'a1\'be2020-10-20 08:44:41:576\'a1\'bf$GPGGA,004442.50,3957.36416083,N,11618.81439560,E,5,23,0.83,45.342,M,0.000,M,5.4,0000*74
\par 
\par \'a1\'be2020-10-20 08:44:41:591\'a1\'bf$GPRMC,004442.50,A,3957.36416083,N,11618.81439560,E,3.806,183.45,201020,,,N*6B
\par 
\par \'a1\'be2020-10-20 08:44:41:607\'a1\'bf$GPCHC,2128,175500.50,180.56,0.90,-1.13,-0.04,-0.29,-0.14,0.0001,0.0484,1.0857,39.95606935,116.31357326,45.34,-0.118,-1.955,0.026,1.958,23,18,52,5,2*5B
\par 
\par \'a1\'be2020-10-20 08:44:41:685\'a1\'bf$GPGGA,004442.60,3957.36405789,N,11618.81439184,E,5,23,0.83,45.348,M,0.000,M,5.4,0000*7C
\par 
\par \'a1\'be2020-10-20 08:44:41:701\'a1\'bf$GPRMC,004442.60,A,3957.36405789,N,11618.81439184,E,3.785,183.11,201020,,,N*6C
\par 
\par \'a1\'be2020-10-20 08:44:41:701\'a1\'bf$GPCHC,2128,175500.60,180.58,0.87,-1.16,-0.08,-0.38,-0.11,-0.0044,-0.0383,0.9639,39.95606763,116.31357320,45.35,-0.106,-1.944,0.053,1.947,23,18,52,5,2*5A
\par 
\par \'a1\'be2020-10-20 08:44:41:779\'a1\'bf$GPGGA,004442.70,3957.36396801,N,11618.81439676,E,5,18,0.83,45.347,M,0.000,M,5.6,0000*70
\par 
\par \'a1\'be2020-10-20 08:44:41:779\'a1\'bf$GPRMC,004442.70,A,3957.36396801,N,11618.81439676,E,3.714,184.18,201020,,,N*63
\par 
\par \'a1\'be2020-10-20 08:44:41:794\'a1\'bf$GPCHC,2128,175500.70,180.59,0.92,-1.21,0.35,0.11,0.04,0.0680,0.0476,1.0019,39.95606613,116.31357328,45.35,-0.139,-1.905,-0.000,1.911,18,20,52,6,2*56
\par 
\par \'a1\'be2020-10-20 08:44:41:888\'a1\'bf$GPGGA,004442.80,3957.36386739,N,11618.81439028,E,5,18,0.83,45.351,M,0.000,M,5.6,0000*70
\par 
\par \'a1\'be2020-10-20 08:44:41:904\'a1\'bf$GPRMC,004442.80,A,3957.36386739,N,11618.81439028,E,3.766,184.34,201020,,,N*6F
\par 
\par \'a1\'be2020-10-20 08:44:41:904\'a1\'bf$GPCHC,2128,175500.80,180.61,0.90,-1.16,-0.41,0.56,-0.37,-0.0125,-0.0155,1.0548,39.95606446,116.31357317,45.35,-0.147,-1.932,0.072,1.937,18,20,52,6,2*76
\par 
\par \'a1\'be2020-10-20 08:44:41:997\'a1\'bf$GPGGA,004442.90,3957.36378297,N,11618.81439988,E,5,25,0.83,45.351,M,0.000,M,5.8,0000*72
\par 
\par \'a1\'be2020-10-20 08:44:41:997\'a1\'bf$GPRMC,004442.90,A,3957.36378297,N,11618.81439988,E,3.404,177.47,201020,,,N*62
\par 
\par \'a1\'be2020-10-20 08:44:42:013\'a1\'bf$GPCHC,2128,175500.90,180.64,1.02,-1.34,2.65,-3.56,-0.29,-0.0395,-0.0679,0.9389,39.95606305,116.31357333,45.35,0.077,-1.750,-0.067,1.751,25,19,52,6,2*73
\par 
\par \'a1\'be2020-10-20 08:44:42:091\'a1\'bf$GPGGA,004443.00,3957.36369437,N,11618.81440729,E,5,25,0.83,45.342,M,0.000,M,5.8,0000*7F
\par 
\par \'a1\'be2020-10-20 08:44:42:107\'a1\'bf$GPRMC,004443.00,A,3957.36369437,N,11618.81440729,E,3.386,178.97,201020,,,N*62
\par 
\par \'a1\'be2020-10-20 08:44:42:122\'a1\'bf$GPCHC,2128,175501.00,180.69,1.34,-1.62,2.68,-2.22,-0.79,0.0815,0.0622,1.0105,39.95606157,116.31357345,45.34,0.031,-1.741,-0.078,1.742,25,19,52,6,2*72
\par 
\par \'a1\'be2020-10-20 08:44:42:201\'a1\'bf$GPGGA,004443.10,3957.36360091,N,11618.81440655,E,5,25,0.83,45.344,M,0.000,M,5.8,0000*73
\par 
\par \'a1\'be2020-10-20 08:44:42:216\'a1\'bf$GPRMC,004443.10,A,3957.36360091,N,11618.81440655,E,3.637,184.94,201020,,,N*67
\par 
\par \'a1\'be2020-10-20 08:44:42:216\'a1\'bf$GPCHC,2128,175501.10,180.77,1.46,-1.70,-0.51,0.86,-0.58,0.1281,0.0418,1.0346,39.95606002,116.31357344,45.34,-0.161,-1.864,0.076,1.871,25,19,52,6,2*78
\par 
\par \'a1\'be2020-10-20 08:44:42:294\'a1\'bf$GPGGA,004443.20,3957.36351836,N,11618.81440285,E,5,25,0.76,45.355,M,0.000,M,6.0,0000*7F
\par 
\par \'a1\'be2020-10-20 08:44:42:294\'a1\'bf$GPRMC,004443.20,A,3957.36351836,N,11618.81440285,E,3.454,185.04,201020,,,N*65
\par 
\par \'a1\'be2020-10-20 08:44:42:310\'a1\'bf$GPCHC,2128,175501.20,180.79,1.45,-1.62,0.75,0.35,-0.02,0.0004,-0.0355,0.9668,39.95605864,116.31357338,45.36,-0.156,-1.770,0.023,1.777,25,19,52,6,2*70
\par 
\par \'a1\'be2020-10-20 08:44:42:372\'a1\'bf$GPGGA,004443.30,3957.36344168,N,11618.81440200,E,5,26,0.76,45.360,M,0.000,M,6.2,0000*72
\par 
\par \'a1\'be2020-10-20 08:44:42:388\'a1\'bf$GPRMC,004443.30,A,3957.36344168,N,11618.81440200,E,3.458,183.21,201020,,,N*62
\par 
\par \'a1\'be2020-10-20 08:44:42:388\'a1\'bf$GPCHC,2128,175501.30,180.82,1.56,-1.61,0.45,0.14,-0.67,-0.0197,0.0699,1.0808,39.95605736,116.31357337,45.36,-0.100,-1.776,0.049,1.779,26,22,52,6,2*72
\par 
\par \'a1\'be2020-10-20 08:44:42:622\'a1\'bf$GPGGA,004443.40,3957.36334921,N,11618.81439940,E,5,26,0.76,45.369,M,0.000,M,6.2,0000*7F
\par 
\par \'a1\'be2020-10-20 08:44:42:638\'a1\'bf$GPRMC,004443.40,A,3957.36334921,N,11618.81439940,E,3.499,183.13,201020,,,N*6A
\par 
\par \'a1\'be2020-10-20 08:44:42:638\'a1\'bf$GPCHC,2128,175501.40,180.91,1.53,-1.65,-0.50,0.02,-0.65,0.0974,-0.0145,0.9388,39.95605582,116.31357332,45.37,-0.098,-1.798,0.083,1.800,26,22,52,6,2*5C
\par 
\par \'a1\'be2020-10-20 08:44:42:654\'a1\'bf$GPGGA,004443.50,3957.36327450,N,11618.81439680,E,5,26,0.76,45.376,M,0.000,M,6.4,0000*7C
\par 
\par \'a1\'be2020-10-20 08:44:42:669\'a1\'bf$GPRMC,004443.50,A,3957.36327450,N,11618.81439680,E,3.326,183.72,201020,,,N*65
\par 
\par \'a1\'be2020-10-20 08:44:42:669\'a1\'bf$GPCHC,2128,175501.50,180.94,1.59,-1.62,0.74,-0.15,-0.31,0.0122,0.0312,1.0240,39.95605457,116.31357328,45.38,-0.111,-1.707,0.004,1.711,26,22,52,6,2*74
\par 
\par \'a1\'be2020-10-20 08:44:42:685\'a1\'bf$GPGGA,004443.60,3957.36317951,N,11618.81439920,E,5,26,0.76,45.392,M,0.000,M,6.4,0000*7F
\par 
\par \'a1\'be2020-10-20 08:44:42:701\'a1\'bf$GPRMC,004443.60,A,3957.36317951,N,11618.81439920,E,3.890,177.09,201020,,,N*6D
\par 
\par \'a1\'be2020-10-20 08:44:42:716\'a1\'bf$GPCHC,2128,175501.60,181.04,1.35,-1.82,-5.72,-3.26,-0.96,-0.0558,0.0170,1.1418,39.95605299,116.31357332,45.39,0.101,-1.999,0.312,2.001,26,22,52,6,2*59
\par 
\par \'a1\'be2020-10-20 08:44:42:779\'a1\'bf$GPGGA,004443.70,3957.36309788,N,11618.81441249,E,5,28,0.76,45.410,M,0.000,M,6.6,0000*71
\par 
\par \'a1\'be2020-10-20 08:44:42:794\'a1\'bf$GPRMC,004443.70,A,3957.36309788,N,11618.81441249,E,3.352,175.48,201020,,,N*60
\par 
\par \'a1\'be2020-10-20 08:44:42:794\'a1\'bf$GPCHC,2128,175501.70,181.08,0.94,-2.22,-1.27,-4.60,0.37,0.0791,-0.1884,0.7320,39.95605163,116.31357354,45.41,0.136,-1.719,0.060,1.725,28,22,52,7,2*7F
\par 
\par \'a1\'be2020-10-20 08:44:42:888\'a1\'bf$GPGGA,004443.80,3957.36302031,N,11618.81441486,E,5,28,0.76,45.399,M,0.000,M,6.6,0000*73
\par 
\par \'a1\'be2020-10-20 08:44:42:904\'a1\'bf$GPRMC,004443.80,A,3957.36302031,N,11618.81441486,E,2.903,185.49,201020,,,N*65
\par 
\par \'a1\'be2020-10-20 08:44:42:904\'a1\'bf$GPCHC,2128,175501.80,180.97,1.17,-2.49,3.33,-0.21,1.18,0.1946,0.0804,1.0563,39.95605034,116.31357358,45.40,-0.143,-1.487,-0.098,1.494,28,22,52,7,2*77
\par 
\par \'a1\'be2020-10-20 08:44:42:997\'a1\'bf$GPGGA,004443.90,3957.36295238,N,11618.81440798,E,5,28,0.76,45.403,M,0.000,M,6.8,0000*71
\par 
\par \'a1\'be2020-10-20 08:44:42:997\'a1\'bf$GPRMC,004443.90,A,3957.36295238,N,11618.81440798,E,3.407,186.24,201020,,,N*6D
\par 
\par \'a1\'be2020-10-20 08:44:43:013\'a1\'bf$GPCHC,2128,175501.90,180.86,1.16,-2.43,-2.73,0.92,0.90,0.0181,0.0782,1.1511,39.95604921,116.31357347,45.40,-0.190,-1.743,0.228,1.753,28,22,52,7,2*5D
\par 
\par \'a1\'be2020-10-20 08:44:43:091\'a1\'bf$GPGGA,004444.00,3957.36286559,N,11618.81439833,E,5,28,0.76,45.422,M,0.000,M,6.8,0000*7E
\par 
\par \'a1\'be2020-10-20 08:44:43:091\'a1\'bf$GPRMC,004444.00,A,3957.36286559,N,11618.81439833,E,3.113,184.91,201020,,,N*6D
\par 
\par \'a1\'be2020-10-20 08:44:43:107\'a1\'bf$GPCHC,2128,175502.00,180.79,0.92,-2.33,-0.42,0.78,0.67,-0.0456,-0.1460,0.8153,39.95604776,116.31357331,45.42,-0.137,-1.595,0.113,1.601,28,22,52,7,2*5C
\par 
\par \'a1\'be2020-10-20 08:44:43:200\'a1\'bf$GPGGA,004444.10,3957.36278879,N,11618.81439715,E,5,28,0.76,45.418,M,0.000,M,6.8,0000*73
\par 
\par \'a1\'be2020-10-20 08:44:43:200\'a1\'bf$GPRMC,004444.10,A,3957.36278879,N,11618.81439715,E,2.946,181.82,201020,,,N*67
\par 
\par \'a1\'be2020-10-20 08:44:43:216\'a1\'bf$GPCHC,2128,175502.10,180.72,1.05,-2.42,1.24,-1.20,0.69,0.0906,0.0658,1.0615,39.95604648,116.31357329,45.42,-0.048,-1.515,-0.022,1.516,28,22,52,7,2*7F
\par 
\par \'a1\'be2020-10-20 08:44:43:279\'a1\'bf$GPGGA,004444.20,3957.36272626,N,11618.81439877,E,5,28,0.76,45.420,M,0.000,M,7.0,0000*77
\par 
\par \'a1\'be2020-10-20 08:44:43:294\'a1\'bf$GPRMC,004444.20,A,3957.36272626,N,11618.81439877,E,3.133,185.55,201020,,,N*64
\par 
\par \'a1\'be2020-10-20 08:44:43:294\'a1\'bf$GPCHC,2128,175502.20,180.62,1.00,-2.41,-1.53,0.78,1.40,0.0569,0.0105,1.0344,39.95604544,116.31357331,45.42,-0.156,-1.604,0.159,1.612,28,22,52,7,2*5A
\par 
\par \'a1\'be2020-10-20 08:44:43:404\'a1\'bf$GPGGA,004444.30,3957.36836082,N,11618.80343370,E,5,25,0.76,45.220,M,0.000,M,7.2,0000*7A
\par 
\par \'a1\'be2020-10-20 08:44:43:404\'a1\'bf$GPRMC,004444.30,A,3957.36836082,N,11618.80343370,E,2.835,187.01,201020,,,N*6D
\par 
\par \'a1\'be2020-10-20 08:44:43:419\'a1\'bf$GPCHC,2128,175502.30,180.47,0.99,-2.37,1.29,0.90,1.55,0.0684,-0.0396,0.9017,39.95613935,116.31339056,45.22,-0.178,-1.448,0.008,1.458,25,20,52,7,2*56
\par 
\par \'a1\'be2020-10-20 08:44:43:482\'a1\'bf$GPGGA,004444.40,3957.36828697,N,11618.80342600,E,5,25,0.76,45.221,M,0.000,M,7.2,0000*72
\par 
\par \'a1\'be2020-10-20 08:44:43:497\'a1\'bf$GPRMC,004444.40,A,3957.36828697,N,11618.80342600,E,3.020,184.29,201020,,,N*60
\par 
\par \'a1\'be2020-10-20 08:44:43:513\'a1\'bf$GPCHC,2128,175502.40,180.35,1.06,-2.28,-0.76,0.54,0.77,-0.0207,0.0991,1.1629,39.95613812,116.31339043,45.22,-0.116,-1.549,0.111,1.553,25,20,52,7,2*79
\par 
\par \'a1\'be2020-10-20 08:44:43:575\'a1\'bf$GPGGA,004444.50,3957.36830314,N,11618.80345655,E,5,25,0.76,45.214,M,0.000,M,7.4,0000*73
\par 
\par \'a1\'be2020-10-20 08:44:43:591\'a1\'bf$GPRMC,004444.50,A,3957.36830314,N,11618.80345655,E,2.880,182.63,201020,,,N*6A
\par 
\par \'a1\'be2020-10-20 08:44:43:607\'a1\'bf$GPCHC,2128,175502.50,180.30,0.95,-2.32,-1.20,0.28,1.10,0.0383,-0.0932,0.8677,39.95613839,116.31339094,45.21,-0.068,-1.480,0.117,1.482,25,20,52,7,2*74
\par 
\par \'a1\'be2020-10-20 08:44:43:700\'a1\'bf$GPGGA,004444.60,3957.36822815,N,11618.80345338,E,5,25,0.76,45.215,M,0.000,M,7.4,0000*76
\par 
\par \'a1\'be2020-10-20 08:44:43:732\'a1\'bf$GPRMC,004444.60,A,3957.36822815,N,11618.80345338,E,2.639,182.12,201020,,,N*64
\par 
\par \'a1\'be2020-10-20 08:44:43:747\'a1\'bf$GPCHC,2128,175502.60,180.17,1.01,-2.33,1.25,-0.27,1.20,0.0667,0.0379,1.0343,39.95613714,116.31339089,45.21,-0.050,-1.357,-0.022,1.358,25,20,52,7,2*7A
\par 
\par \'a1\'be2020-10-20 08:44:43:982\'a1\'bf$GPGGA,004444.70,3957.36820065,N,11618.80344905,E,5,26,0.76,45.219,M,0.000,M,7.6,0000*72
\par 
\par \'a1\'be2020-10-20 08:44:43:997\'a1\'bf$GPRMC,004444.70,A,3957.36820065,N,11618.80344905,E,2.829,182.99,201020,,,N*61
\par 
\par \'a1\'be2020-10-20 08:44:43:997\'a1\'bf$GPCHC,2128,175502.70,180.08,1.01,-2.30,-1.39,0.66,1.05,0.0328,0.0425,1.0669,39.95613668,116.31339082,45.22,-0.076,-1.453,0.141,1.455,26,20,52,8,2*5E
\par 
\par \'a1\'be2020-10-20 08:44:43:997\'a1\'bf$GPGGA,004444.80,3957.36812402,N,11618.80344499,E,5,26,0.76,45.229,M,0.000,M,7.6,0000*72
\par 
\par \'a1\'be2020-10-20 08:44:43:997\'a1\'bf$GPRMC,004444.80,A,3957.36812402,N,11618.80344499,E,2.604,182.82,201020,,,N*69
\par 
\par \'a1\'be2020-10-20 08:44:43:997\'a1\'bf$GPCHC,2128,175502.80,179.96,0.91,-2.27,0.42,0.12,1.48,0.0461,-0.0850,0.8743,39.95613540,116.31339075,45.23,-0.066,-1.338,0.037,1.340,26,20,52,8,2*55
\par 
\par \'a1\'be2020-10-20 08:44:44:013\'a1\'bf$GPGGA,004444.90,3957.36811664,N,11618.80342849,E,5,28,0.76,45.220,M,0.000,M,7.8,0000*7C
\par 
\par \'a1\'be2020-10-20 08:44:44:013\'a1\'bf$GPRMC,004444.90,A,3957.36811664,N,11618.80342849,E,2.518,183.84,201020,,,N*67
\par 
\par \'a1\'be2020-10-20 08:44:44:013\'a1\'bf$GPCHC,2128,175502.90,179.84,1.05,-2.21,0.61,0.82,1.34,0.0008,0.0875,1.0954,39.95613528,116.31339047,45.22,-0.087,-1.293,0.033,1.295,28,20,52,8,2*7C
\par 
\par \'a1\'be2020-10-20 08:44:44:091\'a1\'bf$GPGGA,004445.00,3957.36804399,N,11618.80342564,E,5,28,0.76,45.229,M,0.000,M,7.8,0000*7C
\par 
\par \'a1\'be2020-10-20 08:44:44:107\'a1\'bf$GPRMC,004445.00,A,3957.36804399,N,11618.80342564,E,2.624,181.88,201020,,,N*6C
\par 
\par \'a1\'be2020-10-20 08:44:44:107\'a1\'bf$GPCHC,2128,175503.00,179.74,0.98,-2.17,-0.86,0.51,0.92,0.0425,-0.0243,1.0024,39.95613407,116.31339043,45.23,-0.044,-1.349,0.117,1.350,28,20,52,8,2*74
\par 
\par \'a1\'be2020-10-20 08:44:44:185\'a1\'bf$GPGGA,004445.10,3957.36797474,N,11618.80342391,E,5,28,0.76,45.236,M,0.000,M,7.8,0000*7E
\par 
\par \'a1\'be2020-10-20 08:44:44:185\'a1\'bf$GPRMC,004445.10,A,3957.36797474,N,11618.80342391,E,2.391,181.09,201020,,,N*62
\par 
\par \'a1\'be2020-10-20 08:44:44:200\'a1\'bf$GPCHC,2128,175503.10,179.62,1.00,-2.13,1.10,0.04,1.30,0.0304,-0.0211,0.9399,39.95613291,116.31339040,45.24,-0.023,-1.230,0.015,1.230,28,20,52,8,2*55
\par 
\par \'a1\'be2020-10-20 08:44:44:310\'a1\'bf$GPGGA,004445.20,3957.36792003,N,11618.80342534,E,5,28,0.76,45.233,M,0.000,M,8.0,0000*77
\par 
\par \'a1\'be2020-10-20 08:44:44:310\'a1\'bf$GPRMC,004445.20,A,3957.36792003,N,11618.80342534,E,2.440,180.91,201020,,,N*62
\par 
\par \'a1\'be2020-10-20 08:44:44:325\'a1\'bf$GPCHC,2128,175503.20,179.50,1.08,-2.13,0.28,0.26,1.11,0.0383,0.0151,1.0419,39.95613200,116.31339042,45.23,-0.020,-1.255,0.030,1.255,28,19,52,8,2*77
\par 
\par \'a1\'be2020-10-20 08:44:44:372\'a1\'bf$GPGGA,004445.30,3957.36787158,N,11618.80342774,E,5,27,0.76,45.234,M,0.000,M,8.2,0000*71
\par 
\par \'a1\'be2020-10-20 08:44:44:403\'a1\'bf$GPRMC,004445.30,A,3957.36787158,N,11618.80342774,E,2.396,179.24,201020,,,N*6A
\par 
\par \'a1\'be2020-10-20 08:44:44:403\'a1\'bf$GPCHC,2128,175503.30,179.40,1.10,-2.12,0.32,-0.31,0.94,0.0427,-0.0101,1.0002,39.95613119,116.31339046,45.23,0.016,-1.233,0.064,1.233,27,19,52,8,2*55
\par 
\par \'a1\'be2020-10-20 08:44:44:466\'a1\'bf$GPGGA,004445.40,3957.36781281,N,11618.80342602,E,5,27,0.76,45.237,M,0.000,M,8.2,0000*74
\par 
\par \'a1\'be2020-10-20 08:44:44:482\'a1\'bf$GPRMC,004445.40,A,3957.36781281,N,11618.80342602,E,2.266,183.77,201020,,,N*61
\par 
\par \'a1\'be2020-10-20 08:44:44:482\'a1\'bf$GPCHC,2128,175503.40,179.29,1.19,-2.05,1.31,1.38,1.07,0.0196,-0.0013,0.9472,39.95613021,116.31339043,45.24,-0.077,-1.163,0.017,1.165,27,19,52,8,2*58
\par 
\par \'a1\'be2020-10-20 08:44:44:591\'a1\'bf$GPGGA,004445.50,3957.36777286,N,11618.80342838,E,5,26,0.76,45.234,M,0.000,M,8.4,0000*78
\par 
\par \'a1\'be2020-10-20 08:44:44:607\'a1\'bf$GPRMC,004445.50,A,3957.36777286,N,11618.80342838,E,2.314,179.34,201020,,,N*6F
\par 
\par \'a1\'be2020-10-20 08:44:44:607\'a1\'bf$GPCHC,2128,175503.50,179.22,1.28,-2.00,0.48,0.10,0.20,0.0425,0.0356,1.0936,39.95612955,116.31339047,45.23,0.014,-1.190,0.045,1.190,26,21,52,8,2*59
\par 
\par \'a1\'be2020-10-20 08:44:44:685\'a1\'bf$GPGGA,004445.60,3957.36771390,N,11618.80342987,E,5,26,0.76,45.243,M,0.000,M,8.4,0000*7E
\par 
\par \'a1\'be2020-10-20 08:44:44:716\'a1\'bf$GPRMC,004445.60,A,3957.36771390,N,11618.80342987,E,2.372,179.10,201020,,,N*6F
\par 
\par \'a1\'be2020-10-20 08:44:44:716\'a1\'bf$GPCHC,2128,175503.60,179.21,1.26,-1.94,-0.60,0.45,0.29,-0.0009,0.0109,0.9578,39.95612857,116.31339050,45.24,0.019,-1.220,0.112,1.220,26,21,52,8,2*5A
\par 
\par \'a1\'be2020-10-20 08:44:44:779\'a1\'bf$GPGGA,004445.70,3957.36767751,N,11618.80343298,E,5,27,0.76,45.242,M,0.000,M,8.6,0000*77
\par 
\par \'a1\'be2020-10-20 08:44:44:794\'a1\'bf$GPRMC,004445.70,A,3957.36767751,N,11618.80343298,E,2.144,179.96,201020,,,N*6D
\par 
\par \'a1\'be2020-10-20 08:44:44:794\'a1\'bf$GPCHC,2128,175503.70,179.17,1.27,-1.90,1.18,0.57,0.41,0.0308,-0.0141,0.9744,39.95612796,116.31339055,45.24,0.001,-1.103,-0.000,1.103,27,21,52,9,2*57
\par 
\par \'a1\'be2020-10-20 08:44:44:888\'a1\'bf$GPGGA,004445.80,3957.36762306,N,11618.80343421,E,5,27,0.76,45.246,M,0.000,M,8.6,0000*7B
\par 
\par \'a1\'be2020-10-20 08:44:44:903\'a1\'bf$GPRMC,004445.80,A,3957.36762306,N,11618.80343421,E,2.373,181.10,201020,,,N*6A
\par 
\par \'a1\'be2020-10-20 08:44:44:903\'a1\'bf$GPCHC,2128,175503.80,179.13,1.28,-1.85,-1.52,1.25,0.38,0.0781,0.0821,1.0673,39.95612705,116.31339057,45.25,-0.023,-1.220,0.147,1.221,27,21,52,9,2*5E
\par 
\par \'a1\'be2020-10-20 08:44:44:966\'a1\'bf$GPGGA,004445.90,3957.36758915,N,11618.80343476,E,5,26,0.76,45.252,M,0.000,M,8.8,0000*73
\par 
\par \'a1\'be2020-10-20 08:44:44:982\'a1\'bf$GPRMC,004445.90,A,3957.36758915,N,11618.80343476,E,2.080,179.34,201020,,,N*66
\par 
\par \'a1\'be2020-10-20 08:44:44:997\'a1\'bf$GPCHC,2128,175503.90,179.08,1.17,-1.75,0.67,0.19,0.65,0.0121,-0.1012,0.8986,39.95612649,116.31339058,45.25,0.012,-1.070,0.032,1.070,26,21,52,9,2*74
\par 
\par \'a1\'be2020-10-20 08:44:45:075\'a1\'bf$GPGGA,004446.00,3957.36754220,N,11618.80343701,E,5,26,0.76,45.250,M,0.000,M,8.8,0000*79
\par 
\par \'a1\'be2020-10-20 08:44:45:091\'a1\'bf$GPRMC,004446.00,A,3957.36754220,N,11618.80343701,E,2.080,177.65,201020,,,N*64
\par 
\par \'a1\'be2020-10-20 08:44:45:107\'a1\'bf$GPCHC,2128,175504.00,179.02,1.34,-1.75,0.69,-0.06,0.43,0.0019,0.1214,1.1219,39.95612570,116.31339062,45.25,0.044,-1.069,0.042,1.070,26,21,52,9,2*72
\par 
\par \'a1\'be2020-10-20 08:44:45:185\'a1\'bf$GPGGA,004446.10,3957.36748750,N,11618.80344137,E,5,26,0.76,45.261,M,0.000,M,8.8,0000*71
\par 
\par \'a1\'be2020-10-20 08:44:45:200\'a1\'bf$GPRMC,004446.10,A,3957.36748750,N,11618.80344137,E,2.262,175.87,201020,,,N*6E
\par 
\par \'a1\'be2020-10-20 08:44:45:216\'a1\'bf$GPCHC,2128,175504.10,179.03,1.21,-1.72,-1.54,-0.16,-0.31,-0.0138,-0.0602,0.9602,39.95612479,116.31339069,45.26,0.084,-1.161,0.143,1.164,26,21,52,9,2*7C
\par 
\par \'a1\'be2020-10-20 08:44:45:294\'a1\'bf$GPGGA,004446.20,3957.36746016,N,11618.80344599,E,5,27,0.79,45.261,M,0.000,M,9.0,0000*7E
\par 
\par \'a1\'be2020-10-20 08:44:45:294\'a1\'bf$GPRMC,004446.20,A,3957.36746016,N,11618.80344599,E,1.929,176.90,201020,,,N*64
\par 
\par \'a1\'be2020-10-20 08:44:45:310\'a1\'bf$GPCHC,2128,175504.20,179.03,1.24,-1.75,1.25,-0.01,0.14,0.0443,0.0152,0.9550,39.95612434,116.31339077,45.26,0.054,-0.991,0.016,0.992,27,18,52,9,2*72
\par 
\par \'a1\'be2020-10-20 08:44:45:419\'a1\'bf$GPGGA,004446.30,3957.36743474,N,11618.80344658,E,5,27,0.79,45.259,M,0.000,M,9.2,0000*7D
\par 
\par \'a1\'be2020-10-20 08:44:45:419\'a1\'bf$GPRMC,004446.30,A,3957.36743474,N,11618.80344658,E,2.073,178.45,201020,,,N*6D
\par 
\par \'a1\'be2020-10-20 08:44:45:435\'a1\'bf$GPCHC,2128,175504.30,179.02,1.28,-1.73,-0.67,0.44,0.06,0.0609,0.0317,1.0354,39.95612391,116.31339078,45.26,0.029,-1.066,0.090,1.066,27,18,52,9,2*78
\par 
\par \'a1\'be2020-10-20 08:44:45:466\'a1\'bf$GPGGA,004446.40,3957.36738726,N,11618.80344692,E,5,27,0.79,45.265,M,0.000,M,9.2,0000*7B
\par 
\par \'a1\'be2020-10-20 08:44:45:482\'a1\'bf$GPRMC,004446.40,A,3957.36738726,N,11618.80344692,E,1.907,177.57,201020,,,N*61
\par 
\par \'a1\'be2020-10-20 08:44:45:482\'a1\'bf$GPCHC,2128,175504.40,179.01,1.27,-1.66,0.89,0.10,0.16,-0.0239,-0.0204,0.9700,39.95612312,116.31339078,45.27,0.042,-0.980,0.047,0.981,27,18,52,9,2*5F
\par 
\par \'a1\'be2020-10-20 08:44:45:607\'a1\'bf$GPGGA,004446.50,3957.36736718,N,11618.80344655,E,5,27,0.79,45.259,M,0.000,M,9.4,0000*7B
\par 
\par \'a1\'be2020-10-20 08:44:45:607\'a1\'bf$GPRMC,004446.50,A,3957.36736718,N,11618.80344655,E,1.762,179.87,201020,,,N*66
\par 
\par \'a1\'be2020-10-20 08:44:45:622\'a1\'bf$GPCHC,2128,175504.50,178.99,1.43,-1.68,1.96,0.78,0.23,0.0626,0.0076,0.9737,39.95612279,116.31339078,45.26,0.002,-0.906,-0.021,0.906,27,19,52,9,2*78
\par 
\par \'a1\'be2020-10-20 08:44:45:669\'a1\'bf$GPGGA,004446.60,3957.36732455,N,11618.80344740,E,5,27,0.79,45.259,M,0.000,M,9.4,0000*73
\par 
\par \'a1\'be2020-10-20 08:44:45:685\'a1\'bf$GPRMC,004446.60,A,3957.36732455,N,11618.80344740,E,1.963,176.77,201020,,,N*61
\par 
\par \'a1\'be2020-10-20 08:44:45:685\'a1\'bf$GPCHC,2128,175504.60,179.01,1.55,-1.63,-0.17,0.05,-0.64,0.0205,0.0966,1.1343,39.95612208,116.31339079,45.26,0.057,-1.008,0.089,1.010,27,19,52,9,2*54
\par 
